[
	{
		"name": "Goodnow Hall",
		"lat": 41.7293,
		"lng": -92.7620,
		"icon": "img/acad-mark3.png",
		"Construction": 1885,
		"Demolition": "Present",
		"img": "buildings/1940/Goodnow.jpeg",
		"Description": "Orginally constructed to serve as the school's library and as an astronomical observatory."
	},
	{
		"name": "Herrick Chapel",
		"lat": 41.7346,
		"lng": -92.7564,
		"icon": "img/life-mark3.png",
		"Construction": 1906,
		"Demolition": "Present",
		"img": "buildings/1960/HerrickChapel.jpeg",
		"Description": "Originally used as the associations building, while Alumni Hall is remodeled to house School of Music."
	},
	{
	 	"name": "Carnegie Library",
	 	"lat": 41.7375,
	 	"lng": -92.7614,
	 	"icon": "img/acad-mark3.png",
	 	"Construction": 1904,
		"Demolition": "Present",
		"img": "buildings/1945/CarnegieLibrary.jpeg",
		"Description": "Previous year, the college received an offer from A. Carnegie to fund a new library ($50,000 grant) -> lib moves from Goodnow to here."
	},
	{
		 "name": "Steiner Hall (Christian Associations Building)",
		 "lat":41.7325,
		 "lng":-92.7621,
		 "Construction": 1906,
		 "Demolition": "Present",
		 "icon": "img/adm-mark3.png",
		 "img": "buildings/1926/SteinerHall.jpeg",
		 "Description": "Looking NE."
	},
	{
		 "name": "Alumni Recreation Hall",
		 "lat":41.7425,
		 "lng":-92.7614,
		 "Construction": 1916,
		 "Demolition": "Present",
		 "icon": "img/adm-mark3.png",
		 "img": "buildings/1960/ARH.jpeg",
		 "Description": "ARH is a three-story Tudor-style building with Gothic features which was part of a campus-wide modernization effort prompted by rising enrollment. Designed by H.D. Rawson of Proudfoot, Bird, and Rawson of Des Moines, ARH became the College's general classroom building."

	},
	{
		 "name": "Mears Cottage",
		 "lat": 41.7287,
		 "lng": -92.6909,
		 "Construction": 1888,
		 "Demolition": "Present",
		 "icon": "img/life-mark3.png",
		 "img": "buildings/1931/Mears.jpeg",
		 "Description": "Originally constructed as a lodging space for women (28 female students specifically)."
	},
	{
		 "name": "Darby Gymnasium for Men",
		 "lat": 41.7525,
		 "lng": -92.7267,
		 "Construction": 1941,
		 "Demolition": "Present",
		 "icon": "img/sport-mark3.png",
		 "img": "buildings/1914/Rand.jpeg",
		 "Description": " "
	},
	{
		 "name": "Cowles Hall",
		 "lat": 41.7665,
		 "lng": -92.7426,
		 "Construction": 1941,
		 "Demolition": "Present",
		 "icon": "img/life-mark3.png",
		 "img": "buildings/1914/Rand.jpeg",
		 "Description": "Constructed as a residence for menas well as a dining room for around 300."
	},
	{
		"name": "Loose Hall for Women",
		 "lat": 41.7447,
		 "lng": -92.6787,
		 "Construction": 1948,
		 "Demolition": "Present",
		 "icon": "img/dorm-mark3.png",
		 "img": "buildings/1914/Rand.jpeg",
		 "Description": ""
	},
	{
		 "name": "Hall of Science",
		 "lat": 41.7436,
		 "lng": -92.7286,
		 "Construction": 1952,
		 "Demolition": "Present",
		 "icon": "img/acad-mark3.png",
		 "img": "buildings/1914/Rand.jpeg",
		 "Description": ""
	},
	{
		 "name": "Younker Hall for Men",
		 "lat": 41.7521,
		 "lng": -92.7538,
		 "Construction": 1951,
		 "Demolition": "Present",
		 "icon": "img/dorm-mark3.png",
		 "img": "buildings/1914/Rand.jpeg",
		 "Description": "In 1956 Younker Health Center is constructed."
	},
	{
		"name": "Burling Library",
		 "lat":41.7264,
		 "lng":-92.7202,
		 "Construction": 1958,
		 "Demolition": "Present",
		 "icon": "img/acad-mark3.png",
		 "img": "buildings/1960/Burling 1960.tiff",
		 "Description": ""

	},
	{
		"name": "Harris Center",
		 "lat":41.7691,
		 "lng":-92.7311,
		 "Construction": 1990,
		 "Demolition": "Present",
		 "icon": "img/life-mark3.png",
		 "img": "buildings/1960/Burling 1960.tiff",
		 "Description": ""
	},
	{
		"name": "Fine Arts center and Roberts Theatre",
		 "lat":41.7262,
		 "lng":-92.7576,
		 "Construction": 1960,
		 "Demolition": "Present",
		 "icon": "img/acad-mark3.png",
		 "img": "buildings/1960/Burling 1960.tiff",
		 "Description": ""
	},
	{
		"name": "The College Forum",
		 "lat":41.7330,
		 "lng":-92.7195,
		 "Construction": 1964,
		 "Demolition": "Present",
		 "icon": "img/adm-mark3.png",
		 "img": "buildings/1960/Burling 1960.tiff",
		 "Description": "Former President's home is name Grinnell House and ussed as a College Inn and offical ffaculty and administrative entertainment center."
	},
	{
		 "name": "Physical Education Complex",
		 "lat":41.7649,
		 "lng":-92.7026,
		 "Construction": 1971,
		 "Demolition": "Present",
		 "icon": "img/sport-mark3.png",
		 "img": "buildings/1960/Burling 1960.tiff",
		 "Description": "Rubberized asphalt running track."
	},
	{
		 "name": "Norris Hall",
		 "lat":41.7702,
		 "lng":-92.7633,
		 "Construction": 1971,
		 "Demolition": "Present",
		 "icon": "img/dorm-mark3.png",
		 "img": "buildings/1960/Burling 1960.tiff",
		 "Description": "Rubberized asphalt running track."
	},
	{
		 "name": "Dibble Hall",
		 "lat":41.7670,
		 "lng":-92.7601,
		 "Construction": 1971,
		 "Demolition": "Present",
		 "icon": "img/dorm-mark3.png",
		 "img": "buildings/1960/Burling 1960.tiff",
		 "Description": "Rubberized asphalt running track."
	},
	{
		 "name": "Clark Hall",
		 "lat":41.7642,
		 "lng":-92.7636,
		 "Construction": 1971,
		 "Demolition": "Present",
		 "icon": "img/dorm-mark3.png",
		 "img": "buildings/1960/Burling 1960.tiff",
		 "Description": "Rubberized asphalt running track."
	},
	{
		 "name": "Gates Hall",
		 "lat":41.7621,
		 "lng":-92.7640,
		 "Construction": 1971,
		 "Demolition": "Present",
		 "icon": "img/dorm-mark3.png",
		 "img": "buildings/1960/Burling 1960.tiff",
		 "Description": "Rubberized asphalt running track."
	},
	{
		 "name": "Rawson Hall",
		 "lat":41.7599,
		 "lng":-92.7641,
		 "Construction": 1971,
		 "Demolition": "Present",
		 "icon": "img/dorm-mark3.png",
		 "img": "buildings/1960/Burling 1960.tiff",
		 "Description": "Rubberized asphalt running track."
	},
	{
		 "name": "Langan Hall",
		 "lat":41.7574,
		 "lng":-92.7638,
		 "Construction": 1971,
		 "Demolition": "Present",
		 "icon": "img/dorm-mark3.png",
		 "img": "buildings/1960/Burling 1960.tiff",
		 "Description": "Rubberized asphalt running track."
	},
	{
		 "name": "Smith Hall",
		 "lat":41.7533,
		 "lng":-92.7598,
		 "Construction": 1971,
		 "Demolition": "Present",
		 "icon": "img/dorm-mark3.png",
		 "img": "buildings/1960/Burling 1960.tiff",
		 "Description": "Rubberized asphalt running track."
	},
	{
		 "name": "Read Hall",
		 "lat":41.7415,
		 "lng":-92.6786,
		 "Construction": 1971,
		 "Demolition": "Present",
		 "icon": "img/dorm-mark3.png",
		 "img": "buildings/1960/Burling 1960.tiff",
		 "Description": "Rubberized asphalt running track."
	},
	{
		 "name": "Haines Hall",
		 "lat":41.7375,
		 "lng":-92.6783,
		 "Construction": 1971,
		 "Demolition": "Present",
		 "icon": "img/dorm-mark3.png",
		 "img": "buildings/1960/Burling 1960.tiff",
		 "Description": "Rubberized asphalt running track."
	},
	{
		 "name": "James Hall",
		 "lat":41.7342,
		 "lng":-92.6779,
		 "Construction": 1971,
		 "Demolition": "Present",
		 "icon": "img/dorm-mark3.png",
		 "img": "buildings/1960/Burling 1960.tiff",
		 "Description": "Rubberized asphalt running track."
	},
	{
		 "name": "Cleveland Hall",
		 "lat":41.7323,
		 "lng":-92.6779,
		 "Construction": 1971,
		 "Demolition": "Present",
		 "icon": "img/dorm-mark3.png",
		 "img": "buildings/1960/Burling 1960.tiff",
		 "Description": "Rubberized asphalt running track."
	},
	{
		 "name": "Main Hall",
		 "lat":41.7283,
		 "lng":-92.6771,
		 "Construction": 1971,
		 "Demolition": "Present",
		 "icon": "img/dorm-mark3.png",
		 "img": "buildings/1960/Burling 1960.tiff",
		 "Description": "Rubberized asphalt running track."
	},
	{
		 "name": "Younker Memorial Resource Center",
		 "lat":41.7523,
		 "lng":-92.6843,
		 "Construction": 1971,
		 "Demolition": "Present",
		 "icon": "img/life-mark3.png",
		 "img": "buildings/1960/Burling 1960.tiff",
		 "Description": "Rubberized asphalt running track."
	},
	{
		 "name": "Playing Field",
		 "lat":41.7649,
		 "lng":-92.6840,
		 "Construction": 1971,
		 "Demolition": "Present",
		 "icon": "img/field-mark3.png",
		 "img": "buildings/1960/Burling 1960.tiff",
		 "Description": "Rubberized asphalt running track."
	},
	{
		 "name": "Softball Field",
		 "lat":41.7562,
		 "lng":-92.6823,
		 "Construction": 1971,
		 "Demolition": "Present",
		 "icon": "img/field-mark3.png",
		 "img": "buildings/1960/Burling 1960.tiff",
		 "Description": "Rubberized asphalt running track."
	},
	{
		 "name": "Student Publications",
		 "lat":41.7364,
		 "lng":-92.6840,
		 "Construction": 1971,
		 "Demolition": "Present",
		 "icon": "img/life-mark3.png",
		 "img": "buildings/1960/Burling 1960.tiff",
		 "Description": "Rubberized asphalt running track."
	},
	{
		 "name": "Volleyball Courts",
		 "lat":41.7400,
		 "lng":-92.6962,
		 "Construction": 1971,
		 "Demolition": "Present",
		 "icon": "img/field-mark3.png",
		 "img": "buildings/1960/Burling 1960.tiff",
		 "Description": "Rubberized asphalt running track."
	},
	{
		 "name": "MacEachron Field",
		 "lat":41.7618,
		 "lng":-92.7333,
		 "Construction": 1971,
		 "Demolition": "Present",
		 "icon": "img/field-mark3.png",
		 "img": "buildings/1960/Burling 1960.tiff",
		 "Description": "Rubberized asphalt running track."
	},
	{
		 "name": "Ward Field",
		 "lat":41.7618,
		 "lng":-92.7141,
		 "Construction": 1971,
		 "Demolition": "Present",
		 "icon": "img/field-mark3.png",
		 "img": "buildings/1960/Burling 1960.tiff",
		 "Description": "Rubberized asphalt running track."
	}

]